[
  {
    "trip": "iberia summer",
    "place_name": "lisbon, portugal",
    "lat": 38.7223,
    "lng": -9.1393,
    "visited": true,
    "note": "pastel de nata every morning",
    "date_visited": "2023-09-02"
  },
  {
    "trip": "iberia summer",
    "place_name": "seville, spain",
    "lat": 37.3891,
    "lng": -5.9845,
    "visited": true,
    "note": "hottest week of my life, worth it",
    "date_visited": "2023-09-06"
  },
  {
    "trip": "japan 2024",
    "place_name": "kyoto, japan",
    "lat": 35.0116,
    "lng": 135.7681,
    "visited": true,
    "note": "cherry blossom season",
    "date_visited": "2024-04-10"
  },
  {
    "trip": "japan 2024",
    "place_name": "osaka, japan",
    "lat": 34.6937,
    "lng": 135.5023,
    "visited": true,
    "note": "amazing street food",
    "date_visited": "2024-04-12"
  },
  {
    "trip": "japan 2024",
    "place_name": "tokyo, japan",
    "lat": 35.6762,
    "lng": 139.6503,
    "visited": true,
    "note": "shibuya crossing at night was unreal",
    "date_visited": "2024-04-15"
  },
  {
    "trip": "japan 2025",
    "place_name": "kyoto, japan",
    "lat": 35.0116,
    "lng": 135.7681,
    "visited": true,
    "note": "back for the autumn leaves this time",
    "date_visited": "2025-11-08"
  },
  {
    "trip": null,
    "place_name": "reykjavik, iceland",
    "lat": 64.1466,
    "lng": -21.9426,
    "visited": false,
    "note": "want to see northern lights",
    "date_visited": null
  },
  {
    "trip": null,
    "place_name": "queenstown, new zealand",
    "lat": -45.0312,
    "lng": 168.6626,
    "visited": false,
    "note": "bucket list hiking spot",
    "date_visited": null
  }
]
